id_p,name,lat,lon
point_1,Store A,40.7128,-74.0060
point_2,Store B,40.7589,-73.9851
point_3,Store C,40.7505,-73.9934
point_4,Store D,40.7614,-73.9776
point_5,Store E,40.7484,-73.9857
way/1180028681,Distribution Center,40.7282,-73.7949
